id,name,district,total_docks,trips_per_dock,ebs_station,is_ut,lat,lon,transit_nearby,nearest_transit_stop_dist_m,avg_dist_3_nearest_transit_stops_m,jobs_nearby_275m,housing_nearby_275m,housing_nearby_1000m,job_housing_ratio_275m,low_income_access_score,amenities_nearby,avg_dist_3_nearest_amenities_m,park_area_nearby,nearest_park_dist_m,bike_infra_score,retail_nearby,avg_dist_3_nearest_retail_m,entertainment_nearby,avg_dist_3_nearest_entertainment_m,tourism_nearby,avg_dist_3_nearest_tourism_m,nearest_station_dist_m,stations_within_500m,stations_within_1000m,avg_stations_dist_3_nearest_m,nearest_dining_hall_dist_m,nearest_dorm_dist_m,nearest_dorm_pop,dorm_pop_within_500m,min_dist_to_ut_hotspot_m,avg_dist_3_nearest_ut_hotspot_m,ut_hotspot_within_300m,ut_hotspot_within_500m,min_dist_to_wampus_hotspot_m,avg_dist_3_nearest_wampus_hotspot_m,wampus_hotspot_within_300m,wampus_hotspot_within_500m,dist_to_west_campus_center_m,ut_x_dorm_pop_500m,ut_x_dining_dist,ut_x_transit,ut_x_housing_275m,ut_x_ut_hotspots_300m,ut_x_wampus_hotspots_300m
15,w_28th_rio_grande,9,7,3299.714285714286,0,1,30.29333,-97.74412,2,258.81,269.18,651.0,811.0,6877,0.8027127003699137,2.0,5,177.85,0,3408943.18,3.0,9,226.25,1,274.93,0,1207.39,366.83,1.0,5.0,616.24,604.42,491.45,588.0,588.0,652.15,845.13,0,0,332.14,503.53,0,1,727.54,588.0,604.42,2,811.0,0,0
10,w_22_5_rio_grande,9,5,2588.4,0,1,30.2862,-97.74516,1,204.99,304.97,779.0,1298.0,5718,0.6001540832049307,2.0,19,116.56,0,3408148.49,3.0,9,50.86,5,56.17,0,631.14,207.0,4.0,10.0,306.78,817.09,544.37,980.0,0.0,458.43,554.75,0,1,160.28,181.02,4,6,394.68,0.0,817.09,1,1298.0,0,4
8,e_21st_speedway_pcl,9,17,2579.470588235294,0,1,30.283,-97.7375,1,243.2,312.94,31.0,0.0,2653,31.0,2.0,5,123.92,0,3407942.81,3.0,7,48.83,2,151.27,1,370.12,236.46,1.0,9.0,435.77,75.13,78.34,1200.0,5103.0,83.56,108.66,4,10,746.56,785.62,0,0,1319.82,5103.0,75.13,1,0.0,4,0
14,w_26th_nueces,9,13,2532.3076923076924,0,1,30.29068,-97.74292,5,126.31,151.19,489.0,1053.0,6414,0.46438746438746437,2.0,10,76.94,0,3408677.27,3.0,13,122.59,6,135.4,0,940.9,301.57,2.0,9.0,432.49,350.15,159.44,588.0,2172.0,312.03,501.46,0,1,158.25,250.08,2,3,582.17,2172.0,350.15,5,1053.0,0,2
12,w_23rd_san_gabriel,9,11,2505.454545454545,0,1,30.2874,-97.7478,1,200.26,280.85,622.0,508.0,6036,1.2244094488188977,2.0,11,164.62,0,3408230.0,3.0,4,82.91,2,173.47,1,736.92,297.13,2.0,7.0,439.22,978.73,778.88,588.0,0.0,753.52,818.53,0,0,162.44,263.31,2,5,145.69,0.0,978.73,1,508.0,0,2
7,w_21st_guadalupe,9,11,1966.0,0,1,30.28395,-97.74198,5,73.82,97.12,1643.0,654.0,4028,2.5122324159021407,2.0,15,65.04,0,3407962.86,3.0,22,59.39,13,69.84,1,435.07,221.94,3.0,11.0,319.13,586.21,86.8,980.0,980.0,367.14,387.24,0,4,237.16,301.0,2,3,849.49,980.0,586.21,5,654.0,0,2
43,dean_keeton_speedway,9,23,1449.6521739130435,0,1,30.28953,-97.73695,9,20.5,101.19,7.0,0.0,3870,7.0,2.0,1,338.46,0,3408663.13,3.0,2,295.57,1,321.84,0,742.23,386.74,2.0,10.0,486.33,339.59,292.94,270.0,1584.0,79.36,147.83,4,7,678.21,788.76,0,0,1181.9,1584.0,339.59,9,0.0,4,0
9,w_21st_university,9,19,1332.3157894736842,0,1,30.28354,-97.73953,3,8.41,115.68,510.0,0.0,3587,510.0,2.0,5,180.78,0,3407963.8,3.0,8,205.85,4,211.25,1,348.51,236.46,3.0,10.0,295.42,308.46,208.23,980.0,4058.0,175.64,248.11,2,10,512.98,554.84,0,0,1093.62,4058.0,308.46,3,0.0,2,0
55,guadalupe_west_mall_university_co_op,9,15,1244.9333333333334,0,1,30.285664,-97.741792,5,22.39,56.91,707.0,790.0,4289,0.8949367088607595,2.0,12,148.07,0,3408152.74,3.0,20,31.8,6,69.53,1,561.54,221.94,3.0,11.0,325.06,649.54,282.36,980.0,1664.0,154.15,215.12,3,6,247.79,280.05,2,5,733.09,1664.0,649.54,5,790.0,3,2
44,dean_keeton_whitis,9,19,1218.5263157894738,0,1,30.2898,-97.74041,5,97.1,111.5,552.0,0.0,5951,552.0,2.0,3,243.51,0,3408628.19,3.0,16,135.18,9,135.18,0,864.02,301.57,2.0,12.0,414.42,115.49,36.84,900.0,2172.0,76.46,280.69,1,7,301.73,429.44,0,2,806.85,2172.0,115.49,5,0.0,1,0
11,w_22nd_pearl,9,23,1062.1304347826087,0,1,30.2853,-97.7467,2,4.25,246.92,755.0,864.0,6036,0.8738425925925926,2.0,9,189.9,0,3408022.03,3.0,5,208.31,3,236.07,0,670.76,207.0,2.0,8.0,350.83,1022.15,633.98,980.0,0.0,650.66,741.55,0,0,256.45,299.85,1,5,422.03,0.0,1022.15,2,864.0,0,1
63,rainey_cummings,9,19,800.2631578947369,0,0,30.255906,-97.739949,0,501.0,531.82,670.0,0.0,3624,670.0,2.0,5,84.42,0,3404951.01,3.0,6,95.34,4,123.69,0,966.07,665.66,0.0,4.0,727.71,3509.86,3366.34,130.0,0.0,3325.21,3397.63,0,0,3647.76,3808.08,0,0,4284.49,0.0,0.0,0,0.0,0,0
20,w_3rd_west,9,11,671.0,0,0,30.2678,-97.75189,3,206.32,238.15,2798.0,0.0,6063,2798.0,1.0,10,157.6,0,3406022.58,3.0,27,41.9,17,95.67,0,865.25,281.37,4.0,11.0,309.87,2579.74,2336.48,980.0,0.0,2460.32,2551.92,0,0,2257.99,2415.74,0,0,2712.68,0.0,0.0,0,0.0,0,0
18,w_3rd_nueces,9,11,613.0909090909091,0,0,30.26697,-97.74929,4,18.23,158.21,4952.0,1500.0,5643,3.3013333333333335,1.0,11,82.64,0,3405980.57,3.0,43,45.32,25,63.75,0,670.95,308.57,3.0,15.0,389.9,2489.64,2304.64,980.0,0.0,2383.36,2451.19,0,0,2266.84,2429.82,0,0,2782.42,0.0,0.0,0,0.0,0,0
66,riverside_south_lamar,9,19,582.3684210526316,0,0,30.26446,-97.75665,1,222.15,332.57,2471.0,0.0,7666,2471.0,1.0,10,124.63,0,3405571.06,3.0,8,69.78,6,74.63,0,1090.18,392.61,1.0,6.0,556.99,3253.67,2984.14,980.0,0.0,3129.98,3227.47,0,0,2877.11,3017.24,0,0,3261.9,0.0,0.0,0,0.0,0,0
51,e_6th_medina,3,11,572.1818181818181,0,0,30.26455,-97.73165,3,182.67,213.82,3289.0,0.0,3929,3289.0,2.0,6,97.99,0,3406045.44,4.0,31,37.94,16,39.42,0,342.66,561.05,0.0,10.0,635.28,2447.06,2220.15,900.0,0.0,2137.34,2241.86,0,0,2862.67,2999.59,0,0,3555.82,0.0,0.0,0,0.0,0,0
60,nash_hernandez_east_rbj_south,3,11,569.3636363636364,0,0,30.252,-97.7346,2,179.54,250.62,19.0,338.0,1700,0.05621301775147929,3.0,1,270.84,0,3404625.85,4.0,0,377.2,0,705.36,0,1636.87,779.71,0.0,1.0,1156.98,4003.51,3829.95,900.0,0.0,3764.35,3839.95,0,0,4255.39,4410.03,0,0,4918.88,0.0,0.0,0,0.0,0,0
62,plaza_saltillo,3,15,502.8,0,0,30.26217,-97.72743,2,18.91,194.4,1722.0,1641.0,2931,1.0493601462522852,2.0,6,105.34,0,3405865.29,3.0,39,70.19,25,92.65,0,756.28,346.08,1.0,7.0,471.53,2881.42,2606.44,900.0,0.0,2476.83,2630.78,0,0,3368.85,3498.11,0,0,4063.29,0.0,0.0,0,0.0,0,0
58,lakeshore_lady_bird_ln,3,11,474.3636363636364,0,0,30.24478312140979,-97.72319224423872,0,485.29,551.92,28.0,0.0,3806,28.0,2.0,1,293.13,0,3404053.88,3.0,1,413.5,0,572.84,0,1682.08,718.81,0.0,1.0,1281.68,5154.13,4894.4,900.0,0.0,4765.55,4915.13,0,0,5562.45,5704.59,0,0,6250.66,0.0,0.0,0,0.0,0,0
92,w_7th_congress_w_6th_congress,9,17,466.4117647058824,1,0,30.26822,-97.74285,4,151.16,193.5,23222.0,0.0,4559,23222.0,1.0,3,172.16,0,3406236.13,3.0,68,31.3,49,31.3,2,214.61,231.56,5.0,16.0,258.29,2020.31,1909.33,130.0,0.0,1937.06,1962.13,0,0,2036.0,2198.29,0,0,2664.92,0.0,0.0,0,0.0,0,0
13,e_23rd_san_jacinto_dkr_stadium,9,23,459.0,0,1,30.2856,-97.7335,8,7.31,32.38,394.0,0.0,394,394.0,2.0,4,144.61,0,3408299.93,3.0,7,181.27,3,226.4,2,375.32,481.05,1.0,8.0,553.99,497.71,433.17,390.0,535.0,242.19,291.07,2,7,1154.18,1158.53,0,0,1602.69,535.0,497.71,8,0.0,2,0
59,lakeshore_pleasant_valley,3,15,448.4,0,0,30.24258,-97.71726,2,48.4,154.93,0.0,0.0,4048,0.0,2.0,6,230.39,0,3403925.18,3.0,0,482.1,0,866.24,0,1750.82,718.81,0.0,1.0,1438.53,5646.4,5356.19,900.0,0.0,5200.69,5370.45,0,0,6115.66,6250.87,0,0,6808.85,0.0,0.0,0,0.0,0,0
64,rainey_driskill,9,11,444.45454545454544,0,0,30.260814,-97.738086,2,107.52,197.77,552.0,0.0,5190,552.0,2.0,8,111.65,0,3405519.37,2.0,17,26.48,15,51.82,0,692.95,654.87,0.0,7.0,686.74,2863.47,2714.93,130.0,0.0,2665.45,2743.26,0,0,3060.08,3216.5,0,0,3719.38,0.0,0.0,0,0.0,0,0
24,w_5th_bowie,9,15,436.73333333333335,0,0,30.2696,-97.75332,4,77.91,159.37,7211.0,2318.0,7529,3.1108714408973253,1.0,6,93.41,0,3406191.81,3.0,23,47.45,8,47.45,0,690.74,281.37,4.0,8.0,320.41,2521.73,2229.58,980.0,0.0,2391.75,2495.56,0,0,2117.97,2261.35,0,0,2520.97,0.0,0.0,0,0.0,0,0
16,e_2nd_congress,9,15,426.6666666666667,0,0,30.26408,-97.74355,1,144.66,249.66,8640.0,0.0,6315,8640.0,1.0,8,93.31,0,3405772.91,3.0,47,58.36,32,65.23,2,239.96,196.48,3.0,14.0,286.32,2551.59,2433.77,130.0,0.0,2445.6,2487.26,0,0,2565.52,2728.78,0,0,3178.33,0.0,0.0,0,0.0,0,0
54,electric_drive_pfluger_ped_bridge,9,19,409.3157894736842,0,0,30.267064,-97.75482,3,163.48,179.99,639.0,2318.0,5813,0.2756686798964625,1.0,5,134.4,0,3405888.19,3.0,11,113.83,3,161.9,0,919.91,339.68,3.0,9.0,366.45,2869.97,2592.34,980.0,0.0,2743.82,2846.87,0,0,2484.85,2627.24,0,0,2880.81,0.0,0.0,0,0.0,0,0
29,w_16th_san_antonio,9,11,380.45454545454544,0,0,30.27924,-97.74371,4,117.16,170.52,4249.0,0.0,3188,4249.0,1.0,5,225.01,0,3407418.53,2.0,6,137.99,4,170.56,0,659.44,636.97,0.0,8.0,734.99,907.67,606.37,980.0,0.0,764.44,871.22,0,0,612.34,775.02,0,0,1266.08,0.0,0.0,0,0.0,0,0
57,lake_austin_blvd_deep_eddy,10,11,368.8181818181818,0,0,30.27807,-97.77272,4,169.22,190.69,981.0,0.0,512,981.0,1.0,1,332.65,0,3406753.89,3.0,7,43.62,4,43.75,0,1120.7,560.22,0.0,2.0,1058.72,4002.25,3556.1,980.0,0.0,3693.16,3777.81,0,0,3039.96,3119.14,0,0,3112.83,0.0,0.0,0,0.0,0,0
71,south_congress_barton_springs,9,11,363.8181818181818,0,0,30.25839,-97.74592,0,282.98,308.42,3689.0,428.0,4549,8.619158878504672,1.0,0,313.75,0,3405110.11,3.0,12,80.27,4,194.03,2,411.6,353.63,3.0,10.0,425.09,3330.27,3213.11,130.0,0.0,3222.0,3264.38,0,0,3304.24,3468.65,0,0,3885.08,0.0,0.0,0,0.0,0,0
21,w_4th_congress,9,15,360.3333333333333,0,0,30.26634,-97.74378,2,236.2,256.65,17250.0,687.0,4559,25.109170305676855,1.0,8,132.25,0,3406014.4,3.0,80,42.23,57,65.5,3,120.81,263.5,6.0,16.0,307.44,2283.32,2172.83,130.0,0.0,2198.78,2224.19,0,0,2273.77,2437.2,0,0,2886.34,0.0,0.0,0,0.0,0,0
52,e_6th_pedernales,3,11,345.1818181818182,0,0,30.25895,-97.71475,1,262.48,288.65,1187.0,0.0,3954,1187.0,2.0,1,300.72,0,3405751.87,2.0,7,55.25,4,55.25,0,561.49,501.7,0.0,3.0,690.09,3955.52,3599.32,900.0,0.0,3387.65,3589.41,0,0,4592.25,4697.43,0,0,5272.49,0.0,0.0,0,0.0,0,0
41,cesar_chavez_congress,9,11,335.90909090909093,0,0,30.26332,-97.74508,3,141.08,164.74,6387.0,0.0,6006,6387.0,1.0,7,110.66,0,3405661.83,3.0,34,123.04,17,147.18,0,345.17,196.48,3.0,14.0,292.27,2698.57,2587.59,130.0,0.0,2609.75,2637.73,0,0,2664.9,2829.13,0,0,3256.88,0.0,0.0,0,0.0,0,0
37,barton_springs_bouldin_palmer_auditorium,9,15,335.8,0,0,30.25966,-97.753445,4,38.05,47.59,3647.0,993.0,3135,3.6727089627391742,1.0,2,254.07,0,3405108.49,3.0,5,167.42,3,218.8,0,991.1,415.52,1.0,8.0,563.33,3532.46,3352.65,980.0,0.0,3430.13,3487.11,0,0,3302.18,3463.4,0,0,3775.87,0.0,0.0,0,0.0,0,0
36,barton_springs_pool,8,11,328.45454545454544,0,0,30.26452,-97.7712,0,372.96,430.41,34.0,0.0,2358,34.0,1.0,2,166.75,0,3405308.19,2.0,3,171.02,1,648.71,1,430.5,376.41,3.0,3.0,406.62,4508.27,4121.88,980.0,0.0,4362.68,4412.29,0,0,3922.28,3996.15,0,0,4063.88,0.0,0.0,0,0.0,0,0
17,w_2nd_lavaca_city_hall,9,19,322.94736842105266,0,0,30.26476,-97.74678,5,129.6,135.52,8077.0,565.0,6568,14.295575221238938,1.0,10,95.45,0,3405786.85,3.0,65,32.4,31,74.96,0,406.05,265.06,4.0,17.0,342.1,2599.8,2488.69,980.0,0.0,2512.42,2547.26,0,0,2494.88,2659.46,0,0,3061.17,0.0,0.0,0,0.0,0,0
87,dean_keeton_robert_dedman_dr,1,11,316.0,0,1,30.28785,-97.728541,5,26.49,109.77,249.0,0.0,2658,249.0,1.0,3,249.44,0,3408636.89,3.0,5,153.17,2,257.23,0,741.55,534.71,0.0,3.0,706.38,1112.79,271.15,190.0,190.0,733.67,793.56,0,0,1622.38,1692.5,0,0,2112.17,190.0,1112.79,5,0.0,0,0
35,w_9th_henderson,9,11,310.45454545454544,0,0,30.27217,-97.75246,4,120.14,144.82,5865.0,0.0,5954,5865.0,1.0,2,235.16,0,3406487.25,2.0,20,100.73,6,169.34,0,593.05,317.85,2.0,7.0,409.83,2231.98,1910.19,980.0,0.0,2095.41,2192.53,0,0,1783.41,1922.78,0,0,2176.25,0.0,0.0,0,0.0,0,0
23,e_5th_neches_downtown_station,9,15,294.6,0,0,30.265843991099903,-97.73891781267967,3,101.12,155.93,2886.0,925.0,3822,3.12,1.0,5,74.6,0,3406050.86,3.0,64,48.97,51,101.06,3,69.95,401.97,2.0,16.0,459.49,2224.02,2082.18,130.0,0.0,2051.47,2130.48,0,0,2407.82,2563.35,0,0,3072.7,0.0,0.0,0,0.0,0,0
68,s_1st_riverside_long_center,9,15,289.6666666666667,0,0,30.259384,-97.749726,7,10.46,44.65,1078.0,0.0,1986,1078.0,1.0,3,173.99,0,3405147.51,3.0,6,173.25,3,190.28,0,617.55,238.04,3.0,9.0,365.4,3366.36,3243.66,980.0,0.0,3278.17,3311.46,0,0,3231.04,3395.07,0,0,3761.16,0.0,0.0,0,0.0,0,0
42,dean_keeton_park_place,9,15,288.8666666666667,0,1,30.28931,-97.733037,6,166.31,174.2,23359.0,0.0,1829,23359.0,2.0,5,164.94,0,3408711.97,3.0,0,330.29,0,346.0,0,668.51,436.52,2.0,5.0,484.09,766.52,283.71,190.0,190.0,304.19,352.89,0,3,1112.57,1210.74,0,0,1613.4,190.0,766.52,6,0.0,0,0
2,w_11th_congress_the_texas_capitol,9,11,283.09090909090907,0,0,30.2726,-97.74127,0,288.76,314.43,3006.0,0.0,2384,3006.0,1.0,2,270.96,0,3406741.79,3.0,8,97.95,3,154.33,1,403.38,315.93,4.0,13.0,351.5,1429.56,1323.07,130.0,0.0,1357.2,1378.37,0,0,1500.31,1657.74,0,0,2163.77,0.0,0.0,0,0.0,0,0
75,veterans_atlanta_mopac_ped_bridge,9,19,280.7894736842105,0,0,30.274475,-97.769892,0,289.25,375.86,0.0,0.0,629,0.0,1.0,12,76.25,0,3406415.14,3.0,0,488.78,0,515.58,0,954.75,560.22,0.0,2.0,749.02,3842.19,3378.34,980.0,0.0,3572.9,3639.55,0,0,3055.92,3090.91,0,0,3079.29,0.0,0.0,0,0.0,0,0
56,hollow_creek_barton_hills,5,11,277.0,0,0,30.26139,-97.77234,0,750.79,799.97,26.0,0.0,2827,26.0,1.0,7,101.0,0,3404946.68,2.0,0,336.74,0,840.63,0,690.69,379.74,2.0,3.0,514.35,4837.03,4470.41,980.0,0.0,4695.11,4763.81,0,0,4283.93,4367.08,0,0,4456.17,0.0,0.0,0,0.0,0,0
74,south_congress_mary,9,11,271.72727272727275,0,0,30.244961,-97.751272,2,10.51,233.5,953.0,0.0,2775,953.0,1.0,7,132.96,0,3403550.32,3.0,18,64.22,6,137.51,0,1373.4,522.94,0.0,3.0,774.99,5160.23,5043.15,130.0,0.0,5047.57,5092.18,0,0,5091.48,5255.88,0,0,5627.36,0.0,0.0,0,0.0,0,0
76,zilker_park,8,15,262.6,0,0,30.2659,-97.76822,2,36.19,202.84,51.0,0.0,2148,51.0,1.0,0,356.81,0,3405513.4,3.0,1,345.93,0,591.22,1,348.88,376.41,1.0,4.0,547.16,4132.72,3749.72,980.0,0.0,3987.53,4041.89,0,0,3554.3,3633.21,0,0,3715.75,0.0,0.0,0,0.0,0,0
28,w_6th_lavaca,9,7,259.42857142857144,0,0,30.268887,-97.745242,10,38.08,77.06,12229.0,0.0,4559,12229.0,1.0,7,190.87,0,3406264.22,2.0,33,50.17,29,50.17,1,341.01,238.24,4.0,18.0,294.82,2046.93,1931.57,980.0,0.0,1955.81,2000.35,0,0,1949.27,2113.71,0,0,2540.66,0.0,0.0,0,0.0,0,0
31,w_8th_congress,9,11,254.9090909090909,0,0,30.2698,-97.74186,4,14.73,153.97,25867.0,0.0,4559,25867.0,1.0,4,129.12,0,3406426.34,3.0,41,17.64,25,20.13,1,329.53,231.56,7.0,17.0,299.99,1791.98,1678.73,130.0,0.0,1705.64,1733.87,0,0,1844.6,2004.89,0,0,2490.94,0.0,0.0,0,0.0,0,0
38,barton_springs_kinney,9,11,252.1818181818182,0,0,30.262,-97.76118,3,64.08,139.82,819.0,0.0,2427,819.0,1.0,8,126.77,0,3405219.56,3.0,15,55.46,13,55.46,0,896.07,595.67,0.0,5.0,792.02,3831.89,3539.54,980.0,0.0,3704.07,3804.75,0,0,3411.12,3536.84,0,0,3739.93,0.0,0.0,0,0.0,0,0
25,w_5th_campbell,9,15,251.7333333333333,0,0,30.27489,-97.76483,4,17.54,135.72,1707.0,0.0,1647,1707.0,1.0,16,107.87,0,3406553.9,3.0,14,51.87,5,53.71,0,924.61,566.03,0.0,2.0,917.98,3288.86,2834.54,980.0,0.0,3050.09,3104.96,0,0,2586.94,2602.42,0,0,2607.63,0.0,0.0,0,0.0,0,0
49,e_5th_broadway,3,15,239.53333333333333,0,0,30.2563,-97.71007,2,151.73,252.06,691.0,1122.0,3242,0.6158645276292335,2.0,3,184.69,0,3405551.27,3.0,4,133.18,0,466.5,0,536.65,622.94,0.0,2.0,963.5,4550.98,4185.79,900.0,0.0,3963.75,4170.47,0,0,5204.4,5306.26,0,0,5881.12,0.0,0.0,0,0.0,0,0
45,e_11th_san_marcos,1,11,239.1818181818182,0,0,30.26968,-97.73074,3,60.4,84.76,511.0,0.0,2224,511.0,2.0,8,124.59,0,3406620.2,2.0,7,101.74,2,219.86,3,193.68,271.3,1.0,9.0,496.82,1845.75,1579.55,900.0,0.0,1475.72,1610.22,0,0,2368.93,2489.46,0,0,3060.44,0.0,0.0,0,0.0,0,0
73,south_congress_james,9,7,222.28571428571428,0,0,30.25103,-97.74926,2,83.17,189.85,1157.0,0.0,3776,1157.0,1.0,4,119.2,0,3404247.68,3.0,19,29.26,9,41.35,0,1068.78,177.62,2.0,5.0,336.54,4347.42,4231.68,130.0,0.0,4239.89,4280.89,0,0,4285.12,4449.65,0,0,4833.57,0.0,0.0,0,0.0,0,0
39,barton_springs_azie_morton,9,15,221.86666666666667,1,0,30.261881964956064,-97.76897665654796,0,530.13,565.22,40.0,0.0,1998,40.0,1.0,6,107.53,0,3405062.39,2.0,1,273.55,0,628.68,0,468.75,379.74,2.0,4.0,441.65,4497.42,4145.88,980.0,0.0,4358.16,4434.54,0,0,3971.63,4065.13,0,0,4181.86,0.0,0.0,0,0.0,0,0
69,south_congress_bouldin_creek,9,15,220.8,0,0,30.25495,-97.74755,4,53.32,115.12,1790.0,0.0,2083,1790.0,1.0,2,264.48,0,3404705.74,3.0,10,110.21,3,219.89,0,864.19,363.76,3.0,8.0,408.59,3807.98,3691.84,130.0,0.0,3700.8,3741.89,0,0,3760.97,3925.55,0,0,4324.43,0.0,0.0,0,0.0,0,0
26,e_6th_chalmers,3,11,219.1818181818182,0,0,30.26269,-97.72438,6,208.29,218.5,1778.0,0.0,3987,1778.0,3.0,4,178.94,0,3405978.7,2.0,46,31.32,31,31.32,0,860.23,346.08,3.0,7.0,373.89,2961.76,2652.3,900.0,0.0,2490.66,2664.56,0,0,3514.69,3634.32,0,0,4206.22,0.0,0.0,0,0.0,0,0
32,e_8th_lavaca,9,7,215.57142857142856,0,0,30.27059,-97.74441,10,21.91,31.07,10963.0,0.0,5374,10963.0,1.0,2,189.25,0,3406464.87,2.0,9,177.57,5,184.55,2,326.53,238.24,4.0,19.0,297.07,1809.48,1697.52,980.0,0.0,1717.59,1765.55,0,0,1726.01,1890.02,0,0,2334.18,0.0,0.0,0,0.0,0,0
70,south_congress_academy,9,11,189.72727272727272,0,0,30.25226,-97.74854,2,34.88,182.22,2124.0,0.0,2655,2124.0,1.0,6,87.47,0,3404394.82,3.0,13,114.33,6,170.64,0,1003.22,177.62,3.0,7.0,336.85,4171.72,4055.22,130.0,0.0,4062.59,4104.95,0,0,4117.72,4282.29,0,0,4672.53,0.0,0.0,0,0.0,0,0
33,e_8th_red_river,9,11,186.9090909090909,0,0,30.26854,-97.73646,3,159.63,209.87,4001.0,309.0,1921,12.94822006472492,1.0,5,126.8,0,3406389.75,2.0,34,25.05,27,25.05,1,322.82,231.82,4.0,16.0,309.2,1864.64,1709.98,130.0,0.0,1653.48,1741.69,0,0,2164.5,2310.15,0,0,2851.37,0.0,0.0,0,0.0,0,0
72,south_congress_elizabeth,9,11,178.63636363636363,0,0,30.24891,-97.75019,2,44.25,172.73,1294.0,0.0,2355,1294.0,1.0,0,361.6,0,3403999.86,3.0,20,47.97,10,59.24,0,1196.17,292.15,2.0,4.0,428.08,4639.38,4523.83,130.0,0.0,4531.74,4572.66,0,0,4570.19,4734.65,0,0,5111.58,0.0,0.0,0,0.0,0,0
53,e_6th_chicon,3,11,171.63636363636363,0,0,30.259718,-97.723198,3,42.49,97.15,692.0,0.0,4314,692.0,2.0,8,58.2,0,3405677.61,2.0,5,190.72,4,247.26,0,897.36,62.38,2.0,6.0,344.89,3362.46,3056.63,900.0,0.0,2895.54,3069.0,0,0,3898.34,4021.49,0,0,4591.54,0.0,0.0,0,0.0,0,0
47,e_2nd_pedernales,3,11,162.0909090909091,0,0,30.25542,-97.71665,2,129.92,242.43,197.0,966.0,2703,0.2039337474120083,3.0,2,223.37,0,3405332.57,2.0,8,145.83,5,203.29,1,373.1,501.7,0.0,4.0,719.47,4204.7,3871.93,900.0,0.0,3682.28,3872.19,0,0,4784.67,4901.5,0,0,5474.88,0.0,0.0,0,0.0,0,0
6,e_13th_trinity_waterloo_greenway,9,11,154.0909090909091,0,0,30.2741,-97.73666,3,187.41,192.72,935.0,0.0,1124,935.0,1.0,1,326.57,0,3406990.63,3.0,3,77.02,1,309.63,0,554.55,177.74,2.0,9.0,344.72,1147.69,995.27,130.0,0.0,959.35,1060.92,0,0,1519.55,1652.14,0,0,2214.02,0.0,0.0,0,0.0,0,0
30,w_6th_west,9,15,152.4,0,0,30.27041,-97.75046,4,12.57,128.81,4588.0,0.0,6786,4588.0,1.0,6,169.69,0,3406332.96,2.0,31,17.69,30,17.69,0,715.36,317.85,4.0,11.0,341.69,2222.83,1965.77,980.0,0.0,2099.21,2200.78,0,0,1886.34,2045.53,0,0,2355.06,0.0,0.0,0,0.0,0,0
1,e_10th_red_river,9,15,149.26666666666668,0,0,30.27024,-97.73578,2,116.12,194.27,2934.0,309.0,1234,9.495145631067961,1.0,3,130.29,0,3406587.26,2.0,14,73.2,11,84.85,1,366.52,231.82,4.0,13.0,323.92,1649.15,1490.29,130.0,0.0,1425.64,1516.59,0,0,1998.92,2138.73,0,0,2691.2,0.0,0.0,0,0.0,0,0
48,e_4th_chicon,3,19,141.73684210526315,0,0,30.25987,-97.72373,3,48.69,99.11,214.0,0.0,4314,214.0,2.0,8,92.12,0,3405684.21,2.0,5,193.85,4,242.98,0,920.36,62.38,2.0,5.0,313.47,3318.57,3016.63,900.0,0.0,2859.36,3030.51,0,0,3847.43,3971.6,0,0,4540.97,0.0,0.0,0,0.0,0,0
3,e_11th_salina,1,11,121.0909090909091,0,0,30.26638,-97.7214,4,97.82,155.26,296.0,0.0,2655,296.0,2.0,2,167.58,0,3406435.51,2.0,2,278.55,1,357.87,0,743.55,456.91,1.0,6.0,629.81,2745.27,2390.36,900.0,0.0,2185.13,2384.07,0,0,3396.55,3496.77,0,0,4070.83,0.0,0.0,0,0.0,0,0
61,one_texas_center,9,15,113.53333333333332,0,0,30.257653,-97.74898,7,136.33,150.08,257.0,0.0,2648,257.0,1.0,2,272.83,0,3404973.12,3.0,7,187.18,2,247.68,0,658.3,238.04,3.0,8.0,324.89,3536.76,3431.42,130.0,0.0,3454.9,3477.32,0,0,3436.11,3600.5,0,0,3979.49,0.0,0.0,0,0.0,0,0
67,rosewood_angelina,1,11,104.8181818181818,0,0,30.26888,-97.72431,2,21.09,115.95,132.0,639.0,2460,0.20657276995305165,2.0,5,111.49,0,3406653.05,2.0,9,35.12,5,35.12,1,394.9,456.91,2.0,6.0,546.48,2291.84,1943.53,900.0,0.0,1749.33,1942.57,0,0,2940.34,3040.17,0,0,3613.93,0.0,0.0,0,0.0,0,0
4,e_11th_san_jacinto,9,11,100.54545454545456,0,0,30.27193,-97.73854,3,44.63,136.32,8935.0,0.0,3309,8935.0,3.0,4,130.56,0,3406719.69,3.0,2,187.9,0,345.38,1,349.93,208.16,7.0,13.0,291.14,1440.08,1303.3,130.0,0.0,1294.02,1371.23,0,0,1672.19,1820.1,0,0,2357.38,0.0,0.0,0,0.0,0,0
5,e_12th_san_jacinto_state_cap_visitors_garage,9,11,99.36363636363636,0,0,30.273499,-97.738097,4,146.57,156.28,1688.0,0.0,1697,1688.0,2.0,2,196.78,0,3406898.55,2.0,3,197.21,1,357.15,1,470.55,177.74,4.0,13.0,252.55,1233.27,1095.19,130.0,0.0,1088.79,1166.29,0,0,1507.5,1649.93,0,0,2198.86,0.0,0.0,0,0.0,0,0
34,e_8th_trinity,9,15,95.66666666666669,0,0,30.26895625697814,-97.7386856328997,6,23.59,66.49,21029.0,309.0,2494,68.05501618122977,1.0,2,228.5,0,3406393.61,3.0,40,158.55,36,158.55,1,318.88,253.5,6.0,15.0,328.85,1822.46,1682.33,130.0,0.0,1659.53,1741.95,0,0,2028.25,2180.69,0,0,2703.61,0.0,0.0,0,0.0,0,0
46,e_11th_waller,1,11,84.63636363636364,0,0,30.26899800040119,-97.72843433423913,3,84.49,108.16,432.0,0.0,3556,432.0,2.0,2,229.65,0,3406589.0,3.0,12,53.14,5,76.1,1,315.37,271.3,2.0,8.0,468.85,2032.15,1731.67,900.0,0.0,1590.76,1752.29,0,0,2602.59,2716.57,0,0,3290.01,0.0,0.0,0,0.0,0,0
